{
  "Map": [
    {
      "_id": "63441486be26106c41c6d732",
      "name": "강남구",
      "pins": [
        {
          "_id": 1,
          "name": "경운박물관",
          "address": "서울특별시 강남구 삼성로 29 경운박물관",
          "coordinates": [127.0654539, 37.48691615]
        },
        {
          "_id": 2,
          "name": "세계골프역사박물관",
          "address": "서울특별시 강남구 테헤란로 528 세계골프역사박물관",
          "coordinates": [127.0620024, 37.5080761]
        },
        {
          "_id": 3,
          "name": "코리아나 화장박물관",
          "address": "서울특별시 강남구 언주로 827",
          "coordinates": [127.032811, 37.524071]
        },
        {
          "_id": 4,
          "name": "도산안창호기념관",
          "address": "서울특별시 강남구 도산대로45길 20",
          "coordinates": [127.0356029, 37.5239121]
        },
        {
          "_id": 5,
          "name": "관세박물관",
          "address": "서울특별시 강남구 언주로 721",
          "coordinates": [127.0337768, 37.51830058]
        },
        {
          "_id": 6,
          "name": "탄허기념박물관",
          "address": "서울특별시 강남구 밤고개로14길 13-51",
          "coordinates": [127.1029546, 37.4789983]
        },
        {
          "_id": 7,
          "name": "호림박물관 신사분관",
          "address": "서울특별시 강남구 도산대로 317",
          "coordinates": [127.0363446, 37.5226393]
        },
        {
          "_id": 8,
          "name": "포스코미술관",
          "address": "서울특별시 강남구 테헤란로 440",
          "coordinates": [127.056137, 37.50581326]
        },
        {
          "_id": 9,
          "name": "코리아나미술관",
          "address": "서울특별시 강남구 언주로 827",
          "coordinates": [127.032811, 37.524071]
        },
        {
          "_id": 10,
          "name": "밀알미술관",
          "address": "서울특별시 강남구 일원로 90",
          "coordinates": [127.0820739, 37.48578132]
        },
        {
          "_id": 11,
          "name": "피규어뮤지엄W",
          "address": "서울특별시 강남구 선릉로158길 3",
          "coordinates": [127.0403869, 37.5257998]
        },
        {
          "_id": 12,
          "name": "K현대미술관",
          "address": "서울특별시 강남구 선릉로 807",
          "coordinates": [127.0391734, 37.52438077]
        }
      ]
    },
    {
      "_id": "6344186cbe26106c41c6d733",
      "name": "강동구",
      "pins": [
        {
          "_id": 1,
          "name": "박을복자수박물관",
          "address": "서울특별시 강북구 삼양로 149가길53",
          "coordinates": [127.0084901, 37.65381634]
        }
      ]
    },
    {
      "_id": "6344187ebe26106c41c6d734",
      "name": "강북구",
      "pins": []
    },
    {
      "_id": "63441a3ebe26106c41c6d735",
      "name": "강서구",
      "pins": [
        {
          "_id": 1,
          "name": "허준박물관",
          "address": "서울특별시 강서구 허준로 87",
          "coordinates": [126.8510301, 37.56787281]
        },
        {
          "_id": 2,
          "name": "겸재정선미술관",
          "address": "서울특별시 강서구 양천로47길 36",
          "coordinates": [126.8384111, 37.57222423]
        }
      ]
    },
    {
      "_id": "63441a58be26106c41c6d736",
      "name": "관악구",
      "pins": [
        {
          "_id": 1,
          "name": "호림박물관",
          "address": "서울특별시 관악구 신림동 남부순환로152길 53 호림박물관",
          "coordinates": [126.9182364, 37.4808823]
        },
        {
          "_id": 2,
          "name": "서울대학교 박물관",
          "address": "서울특별시 관악구 신림동 관악로 1 박물관강당",
          "coordinates": [126.9592943, 37.46803806]
        },
        {
          "_id": 3,
          "name": "서울시립 남서울미술관",
          "address": "서울특별시 관악구 남현동 남부순환로 2076 서울시립미술관",
          "coordinates": [126.9797491, 37.47629316]
        },
        {
          "_id": 4,
          "name": "서울대학교 미술관",
          "address": "서울특별시 관악구 신림동 관악로 1 서울대학교 미술관",
          "coordinates": [126.9592943, 37.46803806]
        }
      ]
    },
    {
      "_id": "63441a67be26106c41c6d737",
      "name": "광진구",
      "pins": [
        {
          "_id": 1,
          "name": "건국대학교박물관",
          "address": "서울특별시 광진구 능동로 120",
          "coordinates": [127.0747099, 37.53918331]
        },
        {
          "_id": 2,
          "name": "세종대학교박물관",
          "address": "서울특별시 광진구 능동로21길 37",
          "coordinates": [127.074732, 37.55225499]
        }
      ]
    },
    {
      "_id": "63441a94be26106c41c6d738",
      "name": "구로구",
      "pins": [
        {
          "_id": 1,
          "name": "평강 성서유물박물관",
          "address": "서울특별시 구로구 오류로8라길 44",
          "coordinates": [126.8440613, 37.4919053]
        }
      ]
    },
    {
      "_id": "63441aa3be26106c41c6d739",
      "name": "금천구",
      "pins": []
    },
    {
      "_id": "63441b80be26106c41c6d73a",
      "name": "노원구",
      "pins": [
        {
          "_id": 1,
          "name": "삼육대학교 박물관",
          "address": "서울특별시 노원구 화랑로 815",
          "coordinates": [127.1088514, 37.64335827]
        },
        {
          "_id": 2,
          "name": "서울여자대학교 박물관",
          "address": "서울특별시 노원구 화랑로 621",
          "coordinates": [127.0889917, 37.62878257]
        },
        {
          "_id": 3,
          "name": "인덕대학교 아정미술관",
          "address": "서울특별시 노원구 초안산로 12",
          "coordinates": [127.0544999, 37.63034387]
        },
        {
          "_id": 4,
          "name": "서울과학기술대학교 미술관",
          "address": "서울특별시 노원구 공릉로 232 서울과학기술대학교 다빈치관 216호 미술관",
          "coordinates": [127.0668656, 37.64066045]
        }
      ]
    },
    {
      "_id": "63441b91be26106c41c6d73b",
      "name": "도봉구",
      "pins": [
        {
          "_id": 1,
          "name": "덕성여자대학교 박물관",
          "address": "서울 도봉구 삼양로144길 33 덕성여자대학교 박물관",
          "coordinates": [127.04707, 37.66877]
        },
        {
          "_id": 2,
          "name": "산악박물관",
          "address": "서울특별시 도봉구 도봉산길 86",
          "coordinates": [127.03408, 37.68748]
        }
      ]
    },
    {
      "_id": "63441b98be26106c41c6d73c",
      "name": "동대문구",
      "pins": []
    },
    {
      "_id": "63441ba9be26106c41c6d73d",
      "name": "동작구",
      "pins": [
        {
          "_id": 1,
          "name": "숭실대학교 한국기독교박물관",
          "address": "서울특별시 동작구 상도로 369 한국기독교박물관",
          "coordinates": [126.9551579, 37.49642897]
        }
      ]
    },
    {
      "_id": "63441bb4be26106c41c6d73e",
      "name": "마포구",
      "pins": []
    },
    {
      "_id": "63441bbbbe26106c41c6d73f",
      "name": "서대문구",
      "pins": [
        {
          "_id": 1,
          "name": "서대문자연사박물관(3월~10월)",
          "address": "서울특별시 서대문구 연희로 32길 51",
          "coordinates": [126.937836, 37.57675136]
        },
        {
          "_id": 2,
          "name": "서대문자연사박물관(11월~2월)",
          "address": "서울특별시 서대문구 연희로 32길 51",
          "coordinates": [126.937836, 37.57675136]
        },
        {
          "_id": 3,
          "name": "서대문형무소역사관(3월~10월)",
          "address": "서울특별시 서대문구 통일로 251",
          "coordinates": [126.9556111, 37.57460779]
        },
        {
          "_id": 4,
          "name": "서대문형무소역사관(11월~12월)",
          "address": "서울특별시 서대문구 통일로 251",
          "coordinates": [126.9556111, 37.57460779]
        }
      ]
    },
    {
      "_id": "63441bedbe26106c41c6d740",
      "name": "서초구",
      "pins": [
        {
          "_id": 1,
          "name": "한국전력공사",
          "address": "서울특별시 서초구 효령로 72길 60",
          "coordinates": [127.0280788, 37.4856225]
        },
        {
          "_id": 2,
          "name": "대한불교 천태종 관문사",
          "address": "서울특별시 서초구 바우뫼로7길111",
          "coordinates": [127.0222823, 37.47375033]
        },
        {
          "_id": 3,
          "name": "인도박물관",
          "address": "서울특별시 서초구 서초중앙로 2길 35",
          "coordinates": [127.0191929, 37.48409635]
        },
        {
          "_id": 4,
          "name": "매헌윤봉길의사기념관",
          "address": "서울특별시 서초구 매헌로 99",
          "coordinates": [127.0369771, 37.4730498]
        },
        {
          "_id": 5,
          "name": "유리지공예관",
          "address": "서울특별시 서초구 중앙로 555",
          "coordinates": [127.0123542, 37.45775784]
        },
        {
          "_id": 6,
          "name": "(재)한원미술관",
          "address": "서울특별시 서초구 남부순환로 2423",
          "coordinates": [127.0154357, 37.48178113]
        },
        {
          "_id": 7,
          "name": "예술의전당 서울서예박물관",
          "address": "서울특별시 서초구 남부순환로 2406",
          "coordinates": [127.0142152, 37.4802402]
        },
        {
          "_id": 8,
          "name": "예술의전당 한가람디자인미술관",
          "address": "서울특별시 서초구 남부순환로 2406",
          "coordinates": [127.0142152, 37.4802402]
        },
        {
          "_id": 9,
          "name": "예술의전당 한가람미술관",
          "address": "서울특별시 서초구 남부순환로 2406",
          "coordinates": [127.0142152, 37.4802402]
        }
      ]
    },
    {
      "_id": "63441bfabe26106c41c6d741",
      "name": "성동구",
      "pins": [
        {
          "_id": 1,
          "name": "한양여자대학교 미술관",
          "address": "서울특별시 성동구 살곶이길 200",
          "coordinates": [127.0493225775, 37.5579193904]
        },
        {
          "_id": 2,
          "name": "헬로우뮤지움",
          "address": "서울특별시 성동구 성수일로12길 20",
          "coordinates": [127.0532496803, 37.5481760951]
        },
        {
          "_id": 3,
          "name": "한양대학교 박물관",
          "address": "서울특별시 성동구 왕십리로 222",
          "coordinates": [127.0466112167, 37.5545035492]
        },
        {
          "_id": 4,
          "name": "수도박물관",
          "address": "서울특별시 성동구 왕십리로27",
          "coordinates": [127.039303238, 37.5421902768]
        },
        {
          "_id": 5,
          "name": "청계천박물관",
          "address": "서울특별시 성동구 청계천로 530",
          "coordinates": [127.0350281, 37.5712267]
        }
      ]
    },
    {
      "_id": "63441c0cbe26106c41c6d742",
      "name": "성북구",
      "pins": [
        {
          "_id": 1,
          "name": "성북선잠박물관",
          "address": "서울특별시 성북구 성북로 96",
          "coordinates": [126.9982055, 37.59323425]
        },
        {
          "_id": 2,
          "name": "성북구립미술관",
          "address": "서울특별시 성북구 성북로 134",
          "coordinates": [126.9948864, 37.5948078]
        }
      ]
    },
    {
      "_id": "63441c14be26106c41c6d743",
      "name": "송파구",
      "pins": [
        {
          "_id": 1,
          "name": "예송미술관",
          "address": "서울특별시 송파구 백제고분로 242 구민회관 1층",
          "coordinates": [127.093491858, 37.502358567]
        },
        {
          "_id": 2,
          "name": "한국광고박물관",
          "address": "서울특별시 송파구 올림픽로35길 137 한국광고문화회관 3층",
          "coordinates": [127.0996440634, 37.5159262676]
        },
        {
          "_id": 3,
          "name": "소마미술관",
          "address": "서울특별시 송파구 올림픽로 424",
          "coordinates": [127.1155184, 37.52034114]
        },
        {
          "_id": 4,
          "name": "서울올림픽기념관",
          "address": "서울특별시 송파구 올림픽로 424",
          "coordinates": [127.1155184, 37.52034114]
        },
        {
          "_id": 5,
          "name": "롯데월드민속박물관",
          "address": "서울특별시 송파구 올림픽로 240 호텔롯데 롯데월드",
          "coordinates": [127.0981403954, 37.5113107836]
        },
        {
          "_id": 6,
          "name": "한미사진미술관",
          "address": "서울특별시 송파구 위례성대로14, 한미타워 19.20층",
          "coordinates": [127.1139417, 37.5165552]
        },
        {
          "_id": 7,
          "name": "한성백제박물관",
          "address": "서울특별시 송파구 위례성대로71, 한성백제박물관",
          "coordinates": [127.1208000257, 37.5154271917]
        },
        {
          "_id": 8,
          "name": "몽촌역사관",
          "address": "서울특별시 송파구 올림픽로424",
          "coordinates": [127.1155184, 37.52034114]
        },
        {
          "_id": 9,
          "name": "롯데월드아쿠아리움",
          "address": "서울특별시 송파구 올림픽로300",
          "coordinates": [127.1044541, 37.5137525026]
        },
        {
          "_id": 10,
          "name": "롯데뮤지엄",
          "address": "서울특별시 송파구 올림픽로 300",
          "coordinates": [127.1044541, 37.5137525026]
        }
      ]
    },
    {
      "_id": "63441c24be26106c41c6d744",
      "name": "양천구",
      "pins": []
    },
    {
      "_id": "63441c31be26106c41c6d745",
      "name": "영등포구",
      "pins": [
        {
          "_id": 1,
          "name": "63아트",
          "address": "서울특별시 영등포구 63로 50",
          "coordinates": [126.9399093, 37.51966416]
        },
        {
          "_id": 2,
          "name": "한국잡지박물관",
          "address": "서울특별시 영등포구 여의대방로 67길 11",
          "coordinates": [126.9302412, 37.51976516]
        },
        {
          "_id": 3,
          "name": "국회박물관",
          "address": "서울특별시 영등포구 의사당대로 1",
          "coordinates": [126.9164039, 37.53291197]
        }
      ]
    },
    {
      "_id": "63441c40be26106c41c6d746",
      "name": "용산구",
      "pins": [
        {
          "_id": 1,
          "name": "국립중앙박물관",
          "address": "서울특별시 용산구 서빙고로 137",
          "coordinates": [126.9777412, 37.52470233]
        },
        {
          "_id": 2,
          "name": "국립한글박물관",
          "address": "서울특별시 용산구 서빙고로 139",
          "coordinates": [126.9804843, 37.52106997]
        },
        {
          "_id": 3,
          "name": "백범김구기념관",
          "address": "서울특별시 용산구 임정로 26",
          "coordinates": [126.9592546, 37.54427794]
        },
        {
          "_id": 4,
          "name": "전쟁기념관",
          "address": "서울특별시 용산구 이태원로 29",
          "coordinates": [126.9784661, 37.53731288]
        },
        {
          "_id": 5,
          "name": "한익환서울아트박물관",
          "address": "서울특별시 용산구 한남대로 108",
          "coordinates": [127.004992, 37.53802833]
        },
        {
          "_id": 6,
          "name": "숙명여자대학교 정영양자수박물관",
          "address": "서울특별시 용산구 청파로47길 100",
          "coordinates": [126.9650748, 37.54547273]
        },
        {
          "_id": 7,
          "name": "숙명여자대학교박물관",
          "address": "서울특별시 용산구 청파로47길 100",
          "coordinates": [126.9650748, 37.54547273]
        },
        {
          "_id": 8,
          "name": "삼성미술관 Leeum",
          "address": "서울특별시 용산구 이태원로55길 60-16",
          "coordinates": [126.999294, 37.53846091]
        },
        {
          "_id": 9,
          "name": "숙명여자대학교 문신미술관",
          "address": "서울특별시 용산구 청파로47길 100",
          "coordinates": [126.9650748, 37.54547273]
        },
        {
          "_id": 10,
          "name": "김세중미술관",
          "address": "서울특별시 용산구 효창원로70길 35",
          "coordinates": [126.9638815, 37.54201614]
        },
        {
          "_id": 11,
          "name": "아모레퍼시픽미술관",
          "address": "서울특별시 용산구 한강대로 100",
          "coordinates": [126.9686757, 37.52879082]
        }
      ]
    },
    {
      "_id": "63441c4cbe26106c41c6d747",
      "name": "은평구",
      "pins": [
        {
          "_id": 1,
          "name": "은평역사한옥박물관",
          "address": "서울특별시 은평구 연서로50길 8",
          "coordinates": [126.9380375, 37.6403687]
        },
        {
          "_id": 2,
          "name": "세계다문화박물관",
          "address": "서울특별시 은평구 불광로 135",
          "coordinates": [126.9325323, 37.6187179]
        },
        {
          "_id": 3,
          "name": "사비나미술관",
          "address": "서울특별시 은평구 진관동 진관1로 93",
          "coordinates": [126.92926, 37.6630131]
        }
      ]
    },
    {
      "_id": "63441c55be26106c41c6d748",
      "name": "종로구",
      "pins": [
        {
          "_id": 1,
          "name": "국립민속박물관",
          "address": "서울특별시 종로구 삼청로 37",
          "coordinates": [126.9787619, 37.5794832]
        },
        {
          "_id": 2,
          "name": "대한민국역사박물관",
          "address": "서울특별시 종로구 세종대로 198",
          "coordinates": [126.9783379, 37.57371316]
        },
        {
          "_id": 3,
          "name": "국립고궁박물관",
          "address": "서울특별시 종로구 효자로 12",
          "coordinates": [126.9749771, 37.57659207]
        },
        {
          "_id": 4,
          "name": "국립경찰박물관",
          "address": "서울특별시 종로구 새문안로 41",
          "coordinates": [126.969664, 37.56901165]
        },
        {
          "_id": 5,
          "name": "서울교육박물관",
          "address": "서울특별시 종로구 북촌로5길 48(화동)",
          "coordinates": [126.9838695, 37.58126437]
        },
        {
          "_id": 6,
          "name": "서울역사박물관",
          "address": "서울특별시 종로구 새문안로 55(신문로2가)",
          "coordinates": [126.9710752, 37.57049685]
        },
        {
          "_id": 7,
          "name": "서울우리소리박물관",
          "address": "서울특별시 종로구 율곡로 96",
          "coordinates": [126.989622, 37.57715793]
        },
        {
          "_id": 8,
          "name": "꼭두박물관",
          "address": "서울특별시 종로구 동숭길 122",
          "coordinates": [127.003718, 37.583653]
        },
        {
          "_id": 9,
          "name": "목인박물관",
          "address": "서울특별시 종로구 인사동11길 20(견지동)",
          "coordinates": [126.9836492, 37.573871]
        },
        {
          "_id": 10,
          "name": "뮤지엄김치간",
          "address": "서울특별시 종로구 인사동길 35-4(관훈동)",
          "coordinates": [126.9848673, 37.573514]
        },
        {
          "_id": 11,
          "name": "불교중앙박물관",
          "address": "서울특별시 종로구 우정국로 55",
          "coordinates": [126.9818833, 37.57389395]
        },
        {
          "_id": 12,
          "name": "신문박물관",
          "address": "서울특별시 종로구 세종대로 152",
          "coordinates": [126.9776553, 37.56986758]
        },
        {
          "_id": 13,
          "name": "영인문학관",
          "address": "서울특별시 종로구 평창30길 81(평창동)",
          "coordinates": [126.9717578, 37.6118922]
        },
        {
          "_id": 14,
          "name": "의학박물관",
          "address": "서울특별시 종로구 대학로 101",
          "coordinates": [126.9971964, 37.58045239]
        },
        {
          "_id": 15,
          "name": "화정박물관",
          "address": "서울특별시 종로구 평창8길 3(평창동)",
          "coordinates": [126.9660819, 37.604561]
        },
        {
          "_id": 16,
          "name": "가회민화박물관",
          "address": "서울특별시 종로구 북촌로12길 17(가회동)",
          "coordinates": [126.9856536, 37.58214037]
        },
        {
          "_id": 17,
          "name": "김달진미술자료박물관",
          "address": "서울특별시 종로구 홍지문1길 4(홍지동)",
          "coordinates": [126.9566605, 37.600016]
        },
        {
          "_id": 18,
          "name": "떡박물관",
          "address": "서울특별시 종로구 돈화문로 71(와룡동)",
          "coordinates": [126.9906359, 37.57489958]
        },
        {
          "_id": 19,
          "name": "명인박물관",
          "address": "서울특별시 종로구 북촌로6길 1(가회동)",
          "coordinates": [126.9851875, 37.58016533]
        },
        {
          "_id": 20,
          "name": "보나장신구박물관",
          "address": "서울특별시 종로구 인사동9길 9(관훈동)",
          "coordinates": [126.9845504, 37.573542]
        },
        {
          "_id": 21,
          "name": "북촌동양문화박물관",
          "address": "서울특별시 종로구 북촌로11길 76(삼청동)",
          "coordinates": [126.9833708, 37.583986]
        },
        {
          "_id": 22,
          "name": "북촌박물관",
          "address": "서울특별시 종로구 북촌로 39",
          "coordinates": [126.9847663, 37.58043197]
        },
        {
          "_id": 23,
          "name": "북촌생활사박물관",
          "address": "서울특별시 종로구 북촌로5나길 90(삼청동)",
          "coordinates": [126.9829948, 37.584425]
        },
        {
          "_id": 24,
          "name": "삼성출판박물관",
          "address": "서울특별시 종로구 비봉길 2-2(구기동)",
          "coordinates": [126.9570767, 37.608605]
        },
        {
          "_id": 25,
          "name": "세계장신구박물관",
          "address": "서울특별시 종로구 북촌로5나길 2(화동)",
          "coordinates": [126.9818046, 37.580936]
        },
        {
          "_id": 26,
          "name": "쇳대박물관",
          "address": "서울특별시 종로구 이화장길 100(동숭동)",
          "coordinates": [127.0046144, 37.57980578]
        },
        {
          "_id": 27,
          "name": "쉼박물관",
          "address": "서울특별시 종로구 세검정로 209-17(홍지동)",
          "coordinates": [126.9556778, 37.59950405]
        },
        {
          "_id": 28,
          "name": "유금와당박물관",
          "address": "서울특별시 종로구 창의문로11가길 4(부암동)",
          "coordinates": [126.9626563, 37.5937185]
        },
        {
          "_id": 29,
          "name": "춘원당한방박물관",
          "address": "서울특별시 종로구 돈화문로9길 27(낙원동)",
          "coordinates": [126.9902424, 37.5715019]
        },
        {
          "_id": 30,
          "name": "한국색동박물관",
          "address": "서울특별시 종로구 율곡로10길 85-7(권농동)",
          "coordinates": [126.9920895, 37.573843]
        },
        {
          "_id": 31,
          "name": "상명대학교박물관",
          "address": "서울특별시 종로구 평창문화로 151(평창동)",
          "coordinates": [126.975763, 37.61058485]
        },
        {
          "_id": 32,
          "name": "짚풀생활사박물관",
          "address": "서울특별시 종로구 성균관로4길 45(명륜2가)",
          "coordinates": [126.9998415, 37.58490549]
        },
        {
          "_id": 33,
          "name": "한무숙문학관",
          "address": "서울특별시 종로구 혜화로9길 20(명륜1가)",
          "coordinates": [126.9985915, 37.58780091]
        },
        {
          "_id": 34,
          "name": "서울대학교 치의학대학원 치의학박물관",
          "address": "서울특별시 종로구 대학로 101(연건동)",
          "coordinates": [126.9971964, 37.58045239]
        },
        {
          "_id": 35,
          "name": "성균관대학교 박물관",
          "address": "서울특별시 종로구 성균관로 25-2(명륜3가)",
          "coordinates": [126.9931161, 37.58722985]
        },
        {
          "_id": 36,
          "name": "국립현대미술관(서울관)",
          "address": "서울특별시 종로구 삼청로 30",
          "coordinates": [126.9800889, 37.57862929]
        },
        {
          "_id": 37,
          "name": "OCI 미술관",
          "address": "서울특별시 종로구 우정국로 45-14",
          "coordinates": [126.982131, 37.57323807]
        },
        {
          "_id": 38,
          "name": "JCC미술관",
          "address": "서울특별시 종로구 창경궁로35길 29",
          "coordinates": [127.0018885, 37.58716156]
        },
        {
          "_id": 39,
          "name": "금호미술관",
          "address": "서울특별시 종로구 삼청로 18",
          "coordinates": [126.9799126, 37.57746518]
        },
        {
          "_id": 40,
          "name": "사비나미술관",
          "address": "서울특별시 종로구 율곡로 49-4",
          "coordinates": [126.9845724, 37.57651443]
        },
        {
          "_id": 41,
          "name": "상원미술관",
          "address": "서울특별시 종로구 평창31길 27",
          "coordinates": [126.976541, 37.61162656]
        },
        {
          "_id": 42,
          "name": "성곡미술관",
          "address": "서울특별시 종로구 경희궁길 42",
          "coordinates": [126.969703, 37.57350943]
        },
        {
          "_id": 43,
          "name": "세종문화회관 미술관(세종미술관)",
          "address": "서울특별시 종로구 세종대로 175",
          "coordinates": [126.9761683, 37.57184786]
        },
        {
          "_id": 44,
          "name": "아라리오뮤지엄 인스페이스",
          "address": "서울특별시 종로구 율곡로 83",
          "coordinates": [126.9884166, 37.57776184]
        },
        {
          "_id": 45,
          "name": "아르코미술관",
          "address": "서울특별시 종로구 동숭길 3",
          "coordinates": [127.003256, 37.58050139]
        },
        {
          "_id": 46,
          "name": "아트선재센터",
          "address": "서울특별시 종로구 율곡로3길 87",
          "coordinates": [126.981877, 37.57946209]
        },
        {
          "_id": 47,
          "name": "아트센터 나비 미술관",
          "address": "서울특별시 종로구 종로 26",
          "coordinates": [126.980341, 37.56969128]
        },
        {
          "_id": 48,
          "name": "일민미술관",
          "address": "서울특별시 종로구 세종대로 152",
          "coordinates": [126.9776553, 37.56986758]
        },
        {
          "_id": 49,
          "name": "자하미술관",
          "address": "서울특별시 종로구 창의문로5가길 46",
          "coordinates": [126.960398, 37.58937855]
        },
        {
          "_id": 50,
          "name": "토탈미술관",
          "address": "서울특별시 종로구 평창32길 8",
          "coordinates": [126.9756765, 37.61212012]
        },
        {
          "_id": 51,
          "name": "학아재미술관",
          "address": "서울 종로구 삼일대로 461 운현궁SK 허브",
          "coordinates": [126.9904047, 37.577059]
        },
        {
          "_id": 52,
          "name": "환기미술관",
          "address": "서울특별시 종로구 자하문로 40길 63",
          "coordinates": [126.966112, 37.59408714]
        },
        {
          "_id": 53,
          "name": "세화미술관",
          "address": "서울특별시 종로구 새문안로 68, 3층",
          "coordinates": [126.972186, 37.56964296]
        },
        {
          "_id": 54,
          "name": "대림미술관",
          "address": "서울특별시 종로구 자하문로 4길 21",
          "coordinates": [126.9733647, 37.57750352]
        }
      ]
    },
    {
      "_id": "63441c64be26106c41c6d749",
      "name": "중구",
      "pins": [
        {
          "_id": 1,
          "name": "손기정기념관",
          "address": "서울특별시 중구 손기정로 101",
          "coordinates": [126.9648157, 37.5554795]
        }
      ]
    },
    {
      "_id": "63441c78be26106c41c6d74a",
      "name": "중랑구",
      "pins": []
    }
  ]
}
